{
  "dismantlerProperties" : {
    "expiryDate" : "2023-08-09T13:21:49.578+02:00",
    "governmentAddress" : {
      "houseNumber" : "45",
      "zip" : "68161/12",
      "name" : "VLhpfQGTMDYpsBZxvfBoeygjb",
      "country" : "UI",
      "location" : "Mannheim",
      "street" : "Bernstraﬂe"
    },
    "dismantlerAuditorContact" : {
      "fax" : "851 9575700 27202197886656636",
      "phone" : "+ 8 5 7761174889962063769 58822 950 065 083 874 17 9 28  2 82033921063754"
    },
    "receiverAuditorAddress" : {
      "houseNumber" : "45",
      "zip" : "68161/12",
      "name" : "UMaAIKKIkknjWEXJUfPxxQHeWKEJ",
      "country" : "CK",
      "location" : "Mannheim",
      "street" : "Bernstraﬂe"
    },
    "dismantlerContact" : {
      "fax" : "720886839 31993 168839 665308 76355 34477925 57",
      "phone" : "20318833230 6 43074576168532384"
    },
    "dismantlerAuditorAddress" : {
      "houseNumber" : "45",
      "zip" : "68161/12",
      "name" : "dpHYZGhtgdntugzvvKAXLhM",
      "country" : "OU",
      "location" : "Mannheim",
      "street" : "Bernstraﬂe"
    },
    "dismantlerAddress" : {
      "houseNumber" : "45",
      "zip" : "68161/12",
      "name" : "RYtGKbgicZaHCBRQDSx",
      "country" : "GH",
      "location" : "Mannheim",
      "street" : "Bernstraﬂe"
    },
    "issueDate" : "2023-08-09T13:21:49.578+02:00",
    "isVehicleWithdrawnFromService" : false
  },
  "serialNumber" : "LRP1087432",
  "companyNumber" : "S30A00065",
  "vehicleProperties" : {
    "licenseAbbreviation" : "HAL",
    "isVehicleInformationComplete" : false,
    "licensePlate" : "HAL-UI123",
    "identification" : "WBAAY711X0KC28153",
    "emptyWeight" : -179769313486231570000000000000000000000000000000000000000000000000000000000000000000000000000000000000000000000000000000000000000000000000000000000000000000000000000000000000000000000000000000000000000000000000000000000000000000000000000000000000000000000000000000000000000000000000000000000000000000000000000,
    "model" : "318 I",
    "brand" : "BMW",
    "class" : "01",
    "firstRegistration" : "19.12.2014"
  },
  "returnPointProperties" : {
    "expiryDate" : "2023-08-09T13:21:49.497+02:00",
    "receiverAddress" : {
      "houseNumber" : "45",
      "zip" : "68161/12",
      "name" : "JxkyvRnL",
      "country" : "WK",
      "location" : "Mannheim",
      "street" : "Bernstraﬂe"
    },
    "receiverAuditorAddress" : {
      "houseNumber" : "45",
      "zip" : "68161/12",
      "name" : "yedUsFwdkelQbxeTeQOvaScfqIOOmaa",
      "country" : "OT",
      "location" : "Mannheim",
      "street" : "Bernstraﬂe"
    },
    "receiverAuditorContact" : {
      "fax" : "+ 6160759072516 50967564  081533447431576  540527",
      "phone" : " 75372649363722 199 4551 963817  9128425122 811"
    },
    "receiverContact" : {
      "fax" : "+819041999666296930656",
      "phone" : "2650601 027309144302 7424996208685  44474243797815908994 202 118 2651097917617918909798 3"
    },
    "issueDate" : "2023-08-09T13:21:49.497+02:00",
    "isVehicleWithdrawnFromService" : true
  },
  "vehicleOwnerProperties" : {
    "isVehicleOwnerInformationComplete" : true,
    "vehicleOwnerAddress" : {
      "houseNumber" : "45",
      "zip" : "68161/12",
      "name" : "eOMtThyhVNLWUZNRcBaQKxI",
      "country" : "UE",
      "location" : "Mannheim",
      "street" : "Bernstraﬂe"
    },
    "citizenship" : "DE"
  },
  "dismantlingDate" : "2023-08-09T13:21:49.315+02:00"
}